{
"type": "FeatureCollection",
"name": "UPS_Pick_Dot",
"crs": { "type": "name", "properties": { "name": "urn:ogc:def:crs:OGC:1.3:CRS84" } },
"features": [
{ "type": "Feature", "properties": { "index": 15800, "X": -95.942681013999902, "Y": 29.265045999000048, "FID": 13801, "FEATURE_ID": 15877, "NAME": "UPS Drop Box", "ADDRESS": "100 Texas Ave", "ADDRESS2": " ", "ADDRESS3": " ", "CITY": "Boling", "STATE": "TX", "ZIP": 77420, "PHONE": "979-297-4877", "LATITUDE": 29.265046, "LONGITUDE": -95.942681, "MATCHSTATU": "OK", "PLACEMENT": " ", "CENSUSCODE": "484817406002026", "BUSINESSNA": "Community State Bank", "layer": "UPS_Facilities1", "path": "C:/GSAPP/Fall/Colloquium/03_Delivery_Data/Package/UPS_Facilities.geojson" }, "geometry": { "type": "Point", "coordinates": [ -95.942681, 29.265046 ] } },
{ "type": "Feature", "properties": { "index": 15810, "X": -95.805390012999922, "Y": 29.557317019000038, "FID": 13811, "FEATURE_ID": 15915, "NAME": "UPS Drop Box", "ADDRESS": "2117 Ave I", "ADDRESS2": " ", "ADDRESS3": " ", "CITY": "Rosenberg", "STATE": "TX", "ZIP": 77471, "PHONE": "979-543-9620", "LATITUDE": 29.557317, "LONGITUDE": -95.80539, "MATCHSTATU": "OK", "PLACEMENT": " ", "CENSUSCODE": "481576752001001", "BUSINESSNA": "Cameras Unlimited", "layer": "UPS_Facilities1", "path": "C:/GSAPP/Fall/Colloquium/03_Delivery_Data/Package/UPS_Facilities.geojson" }, "geometry": { "type": "Point", "coordinates": [ -95.80539, 29.557317 ] } },
{ "type": "Feature", "properties": { "index": 15835, "X": -95.695372981999924, "Y": 29.551909010000081, "FID": 13836, "FEATURE_ID": 15923, "NAME": "Authorized Shipping Outlet", "ADDRESS": "1270 Crabb River Rd", "ADDRESS2": " ", "ADDRESS3": " ", "CITY": "Richmond", "STATE": "TX", "ZIP": 77469, "PHONE": "281-937-1900", "LATITUDE": 29.551909, "LONGITUDE": -95.695373, "MATCHSTATU": "OK", "PLACEMENT": " ", "CENSUSCODE": "481576746002018", "BUSINESSNA": "Pak Mail", "layer": "UPS_Facilities1", "path": "C:/GSAPP/Fall/Colloquium/03_Delivery_Data/Package/UPS_Facilities.geojson" }, "geometry": { "type": "Point", "coordinates": [ -95.695373, 29.551909 ] } }
]
}
