{
"type": "FeatureCollection",
"name": "UPS_Dost",
"crs": { "type": "name", "properties": { "name": "urn:ogc:def:crs:OGC:1.3:CRS84" } },
"features": [
{ "type": "Feature", "properties": { "index": 6715, "X": -95.482709983999953, "Y": 29.518786019000053, "FID": 12716, "FEATURE_ID": 13902, "NAME": "Authorized Shipping Outlet", "ADDRESS": "12125 Hwy 6", "ADDRESS2": "Ste C", "ADDRESS3": " ", "CITY": "Fresno", "STATE": "TX", "ZIP": 77545, "PHONE": "281-431-7444", "LATITUDE": 29.518786, "LONGITUDE": -95.48271, "MATCHSTATU": "OK", "PLACEMENT": " ", "CENSUSCODE": "481576708001026", "BUSINESSNA": "Mega Postal & Bus Ctr", "layer": "UPS_Dot", "path": "C:/GSAPP/Fall/Colloquium/04_Delivery_Desert/UPS_Dot.geojson" }, "geometry": { "type": "Point", "coordinates": [ -95.48271, 29.518786 ] } },
{ "type": "Feature", "properties": { "index": 6779, "X": -95.434440021999919, "Y": 29.405153994000042, "FID": 12780, "FEATURE_ID": 16408, "NAME": "UPS Drop Box", "ADDRESS": "20525 Hwy 521", "ADDRESS2": " ", "ADDRESS3": " ", "CITY": "Rosharon", "STATE": "TX", "ZIP": 77583, "PHONE": "979-297-8700", "LATITUDE": 29.405154, "LONGITUDE": -95.43444, "MATCHSTATU": "Zip Centroid", "PLACEMENT": "\\nPlacement: Zip Centroid", "CENSUSCODE": "480396619001094", "BUSINESSNA": "Davenport", "layer": "UPS_Dot", "path": "C:/GSAPP/Fall/Colloquium/04_Delivery_Desert/UPS_Dot.geojson" }, "geometry": { "type": "Point", "coordinates": [ -95.43444, 29.405154 ] } },
{ "type": "Feature", "properties": { "index": 15795, "X": -95.647748995999905, "Y": 29.144552013000062, "FID": 13796, "FEATURE_ID": 15874, "NAME": "UPS Drop Box", "ADDRESS": "111 E Brazos Ave", "ADDRESS2": " ", "ADDRESS3": " ", "CITY": "West Columbia", "STATE": "TX", "ZIP": 77486, "PHONE": " ", "LATITUDE": 29.144552, "LONGITUDE": -95.647749, "MATCHSTATU": "OK", "PLACEMENT": " ", "CENSUSCODE": "480396620001062", "BUSINESSNA": "Wells Fargo Bank", "layer": "UPS_Dot", "path": "C:/GSAPP/Fall/Colloquium/04_Delivery_Desert/UPS_Dot.geojson" }, "geometry": { "type": "Point", "coordinates": [ -95.647749, 29.144552 ] } },
{ "type": "Feature", "properties": { "index": 15800, "X": -95.942681013999902, "Y": 29.265045999000048, "FID": 13801, "FEATURE_ID": 15877, "NAME": "UPS Drop Box", "ADDRESS": "100 Texas Ave", "ADDRESS2": " ", "ADDRESS3": " ", "CITY": "Boling", "STATE": "TX", "ZIP": 77420, "PHONE": "979-297-4877", "LATITUDE": 29.265046, "LONGITUDE": -95.942681, "MATCHSTATU": "OK", "PLACEMENT": " ", "CENSUSCODE": "484817406002026", "BUSINESSNA": "Community State Bank", "layer": "UPS_Dot", "path": "C:/GSAPP/Fall/Colloquium/04_Delivery_Desert/UPS_Dot.geojson" }, "geometry": { "type": "Point", "coordinates": [ -95.942681, 29.265046 ] } },
{ "type": "Feature", "properties": { "index": 15810, "X": -95.805390012999922, "Y": 29.557317019000038, "FID": 13811, "FEATURE_ID": 15915, "NAME": "UPS Drop Box", "ADDRESS": "2117 Ave I", "ADDRESS2": " ", "ADDRESS3": " ", "CITY": "Rosenberg", "STATE": "TX", "ZIP": 77471, "PHONE": "979-543-9620", "LATITUDE": 29.557317, "LONGITUDE": -95.80539, "MATCHSTATU": "OK", "PLACEMENT": " ", "CENSUSCODE": "481576752001001", "BUSINESSNA": "Cameras Unlimited", "layer": "UPS_Dot", "path": "C:/GSAPP/Fall/Colloquium/04_Delivery_Desert/UPS_Dot.geojson" }, "geometry": { "type": "Point", "coordinates": [ -95.80539, 29.557317 ] } },
{ "type": "Feature", "properties": { "index": 15813, "X": -96.099824014999882, "Y": 29.311791008000053, "FID": 13814, "FEATURE_ID": 15916, "NAME": "UPS Drop Box", "ADDRESS": "101 W Caney St", "ADDRESS2": " ", "ADDRESS3": " ", "CITY": "Wharton", "STATE": "TX", "ZIP": 77488, "PHONE": "979-543-9620", "LATITUDE": 29.311791, "LONGITUDE": -96.099824, "MATCHSTATU": "OK", "PLACEMENT": " ", "CENSUSCODE": "484817404001041", "BUSINESSNA": "Mid Coast Title", "layer": "UPS_Dot", "path": "C:/GSAPP/Fall/Colloquium/04_Delivery_Desert/UPS_Dot.geojson" }, "geometry": { "type": "Point", "coordinates": [ -96.099824, 29.311791 ] } },
{ "type": "Feature", "properties": { "index": 15835, "X": -95.695372981999924, "Y": 29.551909010000081, "FID": 13836, "FEATURE_ID": 15923, "NAME": "Authorized Shipping Outlet", "ADDRESS": "1270 Crabb River Rd", "ADDRESS2": " ", "ADDRESS3": " ", "CITY": "Richmond", "STATE": "TX", "ZIP": 77469, "PHONE": "281-937-1900", "LATITUDE": 29.551909, "LONGITUDE": -95.695373, "MATCHSTATU": "OK", "PLACEMENT": " ", "CENSUSCODE": "481576746002018", "BUSINESSNA": "Pak Mail", "layer": "UPS_Dot", "path": "C:/GSAPP/Fall/Colloquium/04_Delivery_Desert/UPS_Dot.geojson" }, "geometry": { "type": "Point", "coordinates": [ -95.695373, 29.551909 ] } },
{ "type": "Feature", "properties": { "index": 15795, "X": -95.647748995999905, "Y": 29.144552013000062, "FID": 13796, "FEATURE_ID": 15874, "NAME": "UPS Drop Box", "ADDRESS": "111 E Brazos Ave", "ADDRESS2": " ", "ADDRESS3": " ", "CITY": "West Columbia", "STATE": "TX", "ZIP": 77486, "PHONE": " ", "LATITUDE": 29.144552, "LONGITUDE": -95.647749, "MATCHSTATU": "OK", "PLACEMENT": " ", "CENSUSCODE": "480396620001062", "BUSINESSNA": "Wells Fargo Bank", "layer": "UPS_Facilities1", "path": "C:/GSAPP/Fall/Colloquium/03_Delivery_Data/Package/UPS_Facilities.geojson" }, "geometry": { "type": "Point", "coordinates": [ -95.647749, 29.144552 ] } },
{ "type": "Feature", "properties": { "index": 15800, "X": -95.942681013999902, "Y": 29.265045999000048, "FID": 13801, "FEATURE_ID": 15877, "NAME": "UPS Drop Box", "ADDRESS": "100 Texas Ave", "ADDRESS2": " ", "ADDRESS3": " ", "CITY": "Boling", "STATE": "TX", "ZIP": 77420, "PHONE": "979-297-4877", "LATITUDE": 29.265046, "LONGITUDE": -95.942681, "MATCHSTATU": "OK", "PLACEMENT": " ", "CENSUSCODE": "484817406002026", "BUSINESSNA": "Community State Bank", "layer": "UPS_Facilities1", "path": "C:/GSAPP/Fall/Colloquium/03_Delivery_Data/Package/UPS_Facilities.geojson" }, "geometry": { "type": "Point", "coordinates": [ -95.942681, 29.265046 ] } },
{ "type": "Feature", "properties": { "index": 15810, "X": -95.805390012999922, "Y": 29.557317019000038, "FID": 13811, "FEATURE_ID": 15915, "NAME": "UPS Drop Box", "ADDRESS": "2117 Ave I", "ADDRESS2": " ", "ADDRESS3": " ", "CITY": "Rosenberg", "STATE": "TX", "ZIP": 77471, "PHONE": "979-543-9620", "LATITUDE": 29.557317, "LONGITUDE": -95.80539, "MATCHSTATU": "OK", "PLACEMENT": " ", "CENSUSCODE": "481576752001001", "BUSINESSNA": "Cameras Unlimited", "layer": "UPS_Facilities1", "path": "C:/GSAPP/Fall/Colloquium/03_Delivery_Data/Package/UPS_Facilities.geojson" }, "geometry": { "type": "Point", "coordinates": [ -95.80539, 29.557317 ] } },
{ "type": "Feature", "properties": { "index": 15835, "X": -95.695372981999924, "Y": 29.551909010000081, "FID": 13836, "FEATURE_ID": 15923, "NAME": "Authorized Shipping Outlet", "ADDRESS": "1270 Crabb River Rd", "ADDRESS2": " ", "ADDRESS3": " ", "CITY": "Richmond", "STATE": "TX", "ZIP": 77469, "PHONE": "281-937-1900", "LATITUDE": 29.551909, "LONGITUDE": -95.695373, "MATCHSTATU": "OK", "PLACEMENT": " ", "CENSUSCODE": "481576746002018", "BUSINESSNA": "Pak Mail", "layer": "UPS_Facilities1", "path": "C:/GSAPP/Fall/Colloquium/03_Delivery_Data/Package/UPS_Facilities.geojson" }, "geometry": { "type": "Point", "coordinates": [ -95.695373, 29.551909 ] } }
]
}
